#=========================================================================
#       www.Minnelusa.com                   email: info@Minnelusa.com
#       Minnelusa Digital Well Log Data
#=========================================================================
~Version Information
 VERS.   2.0                      :CWLS log ASCII Standard - Version 2.0
 WRAP.   NO                       :One Line per Depth Step
 CREA.   02-08-2006               :LAS File Creation Date (MM-DD-YYYY)
~WELL Information Block
#MNEM   .UNIT              Data                 Description of
#----   -----  ------------------------------   -----------------
 STRT   .F                          8420.0000  :START DEPTH
 STOP   .F                          8674.0000  :STOP DEPTH
 STEP   .F                             1.0000  :STEP
 NULL   .                             -999.25  :NULL VALUE
 COMP   .      Plains Petroleum                :COMPANY
 WELL   .      #13-31 Hoffman Et Al            :WELL
 LOC    .      NW SW 31-50N-69W                :LOCATION
 CNTY   .      Campbell                        :COUNTY
 FLD    .                                      :FIELD
 STAT   .      Wyoming                         :STATE
 CTRY   .      U.S.A.                          :COUNTRY
 DATE   .      05/97                           :COMPLETION DATE (MM/YY)
 API    .      49-005-31631-0000               :API NUMBER
 SRVC   .                                      :SERVICE COMPANY
~Curve Information Block
#MNEM   .UNIT                                   Curve Description
#----   -----                                   ---------------------
 DEPT   .F                                     :1 DEPTH
 DT     .US/F                                  :2 SONIC DELTA-T
 RESD   .OHMM                                  :3 DEEP RESISTIVITY
 SP     .MV                                    :4 SP CURVE
 GR     .GAPI                                  :5 GAMMA RAY
~Parameter Information Block
#MNEM   .UNIT                   Value           Information
#----   -----  ------------------------------   --------------------------
 BHT    .DEGF                        162.0000  :BOTTOM HOLE TEMPERATURE
 RMF    .OHMM                          0.1200  :MUD FILTRATE RESISTIVITY
 RMFT   .DEGF                         70.0000  :MEASURE TEMPERATURE OF RMF
 EKB    .F                          4301.0000  :ELEVATION KELLY BUSHING
 SECT   .                                  31  :SECTION
 TOWN   .                                 50N  :TOWNSHIP
 RANG   .                                 69W  :RANGE
~A  Depth     Delta-T     Resist.          SP          GR
  8420.0000     61.9000     12.3000     73.9000    100.0000
  8421.0000     62.6000     11.7000     73.7000    109.0000
  8422.0000     62.8000     11.1000     73.5000    114.0000
  8423.0000     62.8000     10.7000     73.3000    117.0000
  8424.0000     64.3000     10.2000     72.9000    120.0000
  8425.0000     65.6000     10.1000     72.3000    126.0000
  8426.0000     62.5000     11.4000     71.7000    109.0000
  8427.0000     60.3000     12.1000     70.9000     98.0000
  8428.0000     60.1000     12.7000     70.5000     97.0000
  8429.0000     60.1000     13.3000     69.7000     97.0000
  8430.0000     60.9000     13.6000     68.5000    104.0000
  8431.0000     63.6000     13.8000     67.5000    124.0000
  8432.0000     65.4000     13.5000     66.3000    136.0000
  8433.0000     65.7000     13.3000     65.5000    139.0000
  8434.0000     64.7000     15.5000     65.3000    130.0000
  8435.0000     58.8000     44.0000     65.3000     88.0000
  8436.0000     50.0000    149.0000     65.5000     53.0000
  8437.0000     49.3000    179.0000     65.7000     19.0000
  8438.0000     50.5000     63.0000     66.1000     13.0000
  8439.0000     53.8000     50.0000     66.5000     12.0000
  8440.0000     57.2000     49.0000     66.9000     12.0000
  8441.0000     56.2000     59.0000     66.9000     13.0000
  8442.0000     52.7000     91.0000     66.9000     15.0000
  8443.0000     50.5000    176.0000     66.9000     15.0000
  8444.0000     50.1000    201.0000     66.9000     15.0000
  8445.0000     50.4000    164.0000     67.1000     14.0000
  8446.0000     53.2000     64.0000     67.5000     15.0000
  8447.0000     55.9000     49.0000     67.9000     14.0000
  8448.0000     54.4000     68.0000     68.1000     14.0000
  8449.0000     53.1000    228.0000     68.5000     14.0000
  8450.0000     51.4000    352.0000     68.5000     14.0000
  8451.0000     48.2000    365.0000     68.5000     14.0000
  8452.0000     49.0000    301.0000     68.5000     18.0000
  8453.0000     52.4000    101.0000     68.5000     25.0000
  8454.0000     54.3000     77.0000     68.5000     46.0000
  8455.0000     52.8000     79.0000     68.5000     64.0000
  8456.0000     49.1000     90.0000     68.5000     61.0000
  8457.0000     49.1000     88.0000     68.1000     69.0000
  8458.0000     51.7000     66.0000     67.5000     72.0000
  8459.0000     56.1000     51.0000     66.9000     81.0000
  8460.0000     58.0000     42.0000     66.5000     99.0000
  8461.0000     59.0000     36.0000     65.5000    114.0000
  8462.0000     59.9000     32.0000     65.1000    123.0000
  8463.0000     60.2000     30.0000     64.7000    125.0000
  8464.0000     60.4000     29.0000     64.7000    129.0000
  8465.0000     60.2000     29.0000     64.3000    123.0000
  8466.0000     59.8000     31.0000     64.1000    117.0000
  8467.0000     60.2000     31.0000     63.7000    122.0000
  8468.0000     60.4000     30.0000     63.1000    123.0000
  8469.0000     60.5000     28.0000     62.5000    123.0000
  8470.0000     62.0000     25.0000     61.5000    127.0000
  8471.0000     63.1000     24.0000     60.7000    139.0000
  8472.0000     63.0000     26.0000     60.5000    140.0000
  8473.0000     59.0000     33.0000     59.9000    127.0000
  8474.0000     58.4000     37.0000     59.7000    121.0000
  8475.0000     58.8000     38.0000     59.7000    121.0000
  8476.0000     59.8000     35.0000     59.7000    120.0000
  8477.0000     60.0000     33.0000     59.7000    120.0000
  8478.0000     60.0000     30.0000     58.9000    120.0000
  8479.0000     60.5000     29.0000     58.3000    124.0000
  8480.0000     60.6000     32.0000     58.1000    122.0000
  8481.0000     59.6000     41.0000     58.1000    112.0000
  8482.0000     57.2000     53.0000     59.1000    112.0000
  8483.0000     56.8000     58.0000     59.5000    129.0000
  8484.0000     58.3000     59.0000     59.9000     73.0000
  8485.0000     59.6000     57.0000     60.3000     25.0000
  8486.0000     59.2000     61.0000     60.5000     19.0000
  8487.0000     58.9000     69.0000     60.9000     19.0000
  8488.0000     63.0000     51.0000     61.1000     19.0000
  8489.0000     63.9000     33.0000     61.7000     18.0000
  8490.0000     63.7000     31.0000     63.3000     19.0000
  8491.0000     63.7000     29.0000     64.5000     20.0000
  8492.0000     63.6000     31.0000     65.3000     20.0000
  8493.0000     62.5000     38.0000     65.9000     20.0000
  8494.0000     62.6000     43.0000     66.1000     21.0000
  8495.0000     62.3000     48.0000     66.1000     22.0000
  8496.0000     62.3000     62.0000     66.3000     23.0000
  8497.0000     60.1000     91.0000     66.3000     23.0000
  8498.0000     59.0000    108.0000     66.3000     22.0000
  8499.0000     75.3000     44.0000     66.5000     21.0000
  8500.0000     82.5000     16.4000     66.7000     21.0000
  8501.0000     82.1000     12.1000     66.9000     20.0000
  8502.0000     80.8000     11.3000     67.3000     20.0000
  8503.0000     82.5000     11.7000     67.5000     21.0000
  8504.0000     86.1000     11.3000     67.9000     21.0000
  8505.0000     84.2000     10.4000     68.1000     21.0000
  8506.0000     82.3000     10.4000     68.5000     21.0000
  8507.0000     89.8000     10.4000     68.9000     22.0000
  8508.0000     90.5000      9.7000     69.3000     22.0000
  8509.0000     85.7000     10.4000     69.5000     23.0000
  8510.0000     80.9000     12.1000     69.7000     26.0000
  8511.0000     78.8000     12.7000     69.7000     26.0000
  8512.0000     78.3000     13.0000     68.7000     21.0000
  8513.0000     80.3000     13.6000     67.5000     17.0000
  8514.0000     81.3000     13.8000     67.5000     18.0000
  8515.0000     78.1000     13.8000     68.9000     19.0000
  8516.0000     72.4000     16.6000     69.9000     19.0000
  8517.0000     67.4000     20.0000     70.7000     17.0000
  8518.0000     64.8000     21.0000     71.1000     17.0000
  8519.0000     72.5000     16.9000     71.3000     17.0000
  8520.0000     74.8000     11.6000     71.3000     17.0000
  8521.0000     72.9000     11.3000     71.5000     17.0000
  8522.0000     69.2000     11.7000     72.1000     16.0000
  8523.0000     67.2000     13.6000     72.7000     16.0000
  8524.0000     64.8000     21.0000     73.3000     16.0000
  8525.0000     61.5000     44.0000     73.9000     19.0000
  8526.0000     56.4000     82.0000     74.5000     22.0000
  8527.0000     52.7000    257.0000     75.2000     17.0000
  8528.0000     48.9000    309.0000     75.6000     16.0000
  8529.0000     46.6000    253.0000     76.0000     17.0000
  8530.0000     45.5000    134.0000     76.0000     22.0000
  8531.0000     45.4000     71.0000     76.2000     23.0000
  8532.0000     46.0000     53.0000     76.2000     21.0000
  8533.0000     46.8000     48.0000     76.2000     19.0000
  8534.0000     47.5000     48.0000     76.2000     19.0000
  8535.0000     48.2000     62.0000     76.2000     19.0000
  8536.0000     48.8000     86.0000     76.0000     21.0000
  8537.0000     49.0000     98.0000     74.9000     67.0000
  8538.0000     47.6000    101.0000     74.3000    143.0000
  8539.0000     45.4000    100.0000     73.3000     82.0000
  8540.0000     44.6000    111.0000     71.7000     38.0000
  8541.0000     44.6000    122.0000     70.9000     33.0000
  8542.0000     45.2000    140.0000     69.5000     33.0000
  8543.0000     44.9000    178.0000     68.3000     34.0000
  8544.0000     44.4000    246.0000     67.5000     34.0000
  8545.0000     43.9000    269.0000     66.7000     29.0000
  8546.0000     43.7000    243.0000     66.3000     23.0000
  8547.0000     45.3000    117.0000     66.1000     22.0000
  8548.0000     47.4000     69.0000     66.1000     21.0000
  8549.0000     48.9000     36.0000     66.1000     21.0000
  8550.0000     51.3000     25.0000     66.3000     20.0000
  8551.0000     51.6000     23.0000     66.7000     18.0000
  8552.0000     51.7000     38.0000     67.3000     16.0000
  8553.0000     50.9000     66.0000     67.5000     17.0000
