#=========================================================================
#       www.Minnelusa.com                   email: info@Minnelusa.com
#       Minnelusa Digital Well Log Data
#=========================================================================
~Version Information
 VERS.   2.0                      :CWLS log ASCII Standard - Version 2.0
 WRAP.   NO                       :One Line per Depth Step
 CREA.   02-08-2006               :LAS File Creation Date (MM-DD-YYYY)
~WELL Information Block
#MNEM   .UNIT              Data                 Description of
#----   -----  ------------------------------   -----------------
 STRT   .F                          8420.0000  :START DEPTH
 STOP   .F                          8674.0000  :STOP DEPTH
 STEP   .F                             1.0000  :STEP
 NULL   .                             -999.25  :NULL VALUE
 COMP   .      Plains Petroleum                :COMPANY
 WELL   .      #13-31 Hoffman Et Al            :WELL
 LOC    .      NW SW 31-50N-69W                :LOCATION
 CNTY   .      Campbell                        :COUNTY
 FLD    .                                      :FIELD
 STAT   .      Wyoming                         :STATE
 CTRY   .      U.S.A.                          :COUNTRY
 DATE   .      05/97                           :COMPLETION DATE (MM/YY)
 API    .      49-005-31631-0000               :API NUMBER
 SRVC   .                                      :SERVICE COMPANY
~Curve Information Block
#MNEM   .UNIT                                   Curve Description
#----   -----                                   ---------------------
 DEPT   .F                                     :1 DEPTH
 DT     .US/F                                  :2 SONIC DELTA-T
 RESD   .OHMM                                  :3 DEEP RESISTIVITY
 SP     .MV                                    :4 SP CURVE
 GR     .GAPI                                  :5 GAMMA RAY
~Parameter Information Block
#MNEM   .UNIT                   Value           Information
#----   -----  ------------------------------   --------------------------
 BHT    .DEGF                        162.0000  :BOTTOM HOLE TEMPERATURE
 RMF    .OHMM                          0.1200  :MUD FILTRATE RESISTIVITY
 RMFT   .DEGF                         70.0000  :MEASURE TEMPERATURE OF RMF
 EKB    .F                          4301.0000  :ELEVATION KELLY BUSHING
 SECT   .                                  31  :SECTION
 TOWN   .                                 50N  :TOWNSHIP
 RANG   .                                 69W  :RANGE
~A  Depth     Delta-T     Resist.          SP          GR
# ...
  8554.0000     47.3000     83.0000     67.5000     24.0000
  8555.0000     45.6000     77.0000     67.7000     29.0000
  8556.0000     53.2000     21.0000     68.1000     33.0000
  8557.0000     67.1000      5.2000     68.3000     28.0000
  8558.0000     77.0000      2.3000     68.7000     20.0000
  8559.0000     78.9000      1.9600     68.7000     19.0000
  8560.0000     79.8000      1.8900     68.9000     19.0000
  8561.0000     81.5000      1.8900     68.9000     19.0000
  8562.0000     81.4000      1.9600     68.9000     19.0000
  8563.0000     78.5000      2.1000     68.9000     19.0000
  8564.0000     79.8000      2.1000     68.9000     18.0000
  8565.0000     81.8000      1.9800     69.1000     17.0000
  8566.0000     82.4000      1.9100     69.1000     16.0000
  8567.0000     82.5000      2.1000     69.1000     16.0000
  8568.0000     82.1000      2.1000     68.9000     16.0000
  8569.0000     81.8000      2.1000     68.3000     16.0000
  8570.0000     81.2000      2.1000     67.7000     17.0000
  8571.0000     81.1000      2.1000     67.7000     17.0000
  8572.0000     82.4000      2.1000     67.7000     17.0000
  8573.0000     82.7000      2.1000     67.7000     17.0000
  8574.0000     82.8000      2.0000     67.1000     17.0000
  8575.0000     82.3000      2.0000     66.3000     16.0000
  8576.0000     81.9000      2.0000     64.9000     16.0000
  8577.0000     81.3000      2.2000     64.1000     17.0000
  8578.0000     78.2000      2.8000     63.7000     18.0000
  8579.0000     74.0000      3.1000     63.3000     18.0000
  8580.0000     72.8000      3.2000     63.1000     18.0000
  8581.0000     72.6000      3.8000     62.9000     17.0000
  8582.0000     73.2000      4.1000     62.9000     17.0000
  8583.0000     72.2000      4.2000     62.7000     17.0000
  8584.0000     72.1000      3.9000     62.3000     17.0000
  8585.0000     74.6000      3.4000     62.1000     17.0000
  8586.0000     74.6000      3.6000     62.1000     17.0000
  8587.0000     70.6000      5.6000     62.1000     17.0000
  8588.0000     65.8000      7.7000     62.1000     17.0000
  8589.0000     65.3000      7.8000     61.9000     17.0000
  8590.0000     67.5000      7.7000     61.3000     17.0000
  8591.0000     68.2000      8.6000     61.3000     17.0000
  8592.0000     64.0000     13.9000     61.5000     17.0000
  8593.0000     60.1000     19.2000     61.7000     17.0000
  8594.0000     59.0000     18.7000     61.5000     17.0000
  8595.0000     60.0000     15.7000     61.1000     18.0000
  8596.0000     62.8000     13.6000     61.1000     19.0000
  8597.0000     64.6000     12.8000     61.1000     19.0000
  8598.0000     64.6000     12.6000     61.1000     19.0000
  8599.0000     63.4000     14.2000     61.1000     18.0000
  8600.0000     61.6000     23.0000     60.5000     18.0000
  8601.0000     60.0000     36.0000     60.9000     17.0000
  8602.0000     59.6000     42.0000     60.9000     17.0000
  8603.0000     59.6000     31.0000     60.7000     17.0000
  8604.0000     59.6000     27.0000     59.9000     17.0000
  8605.0000     59.5000     30.0000     59.7000     17.0000
  8606.0000     59.1000     37.0000     60.9000     17.0000
  8607.0000     58.5000     44.0000     61.7000     17.0000
  8608.0000     57.8000     51.0000     61.7000     17.0000
  8609.0000     57.3000     55.0000     61.7000     17.0000
  8610.0000     57.0000     42.0000     61.7000     17.0000
  8611.0000     57.1000     27.0000     61.7000     17.0000
  8612.0000     60.0000     19.9000     61.7000     19.0000
  8613.0000     61.3000     17.8000     61.7000     21.0000
  8614.0000     62.2000     17.5000     61.5000     20.0000
  8615.0000     61.3000     18.2000     61.3000     19.0000
  8616.0000     59.1000     23.0000     61.1000     17.0000
  8617.0000     59.3000     24.0000     60.9000     17.0000
  8618.0000     61.6000     17.5000     60.5000     19.0000
  8619.0000     61.6000     16.6000     60.3000     22.0000
  8620.0000     61.2000     20.0000     60.3000     22.0000
  8621.0000     59.8000     29.0000     60.3000     22.0000
  8622.0000     58.8000     57.0000     59.1000     19.0000
  8623.0000     58.5000     72.0000     57.7000     18.0000
  8624.0000     58.5000     86.0000     57.5000     18.0000
  8625.0000     58.2000    148.0000     57.1000     19.0000
  8626.0000     52.6000    343.0000     56.5000     20.0000
  8627.0000     47.4000    982.0000     55.7000     16.0000
  8628.0000     45.5000   1067.0000     54.3000     17.0000
  8629.0000     44.6000    672.0000     53.5000     20.0000
  8630.0000     45.3000    519.0000     52.7000     21.0000
  8631.0000     45.9000    359.0000     50.1000     21.0000
  8632.0000     45.7000    195.0000     48.3000     24.0000
  8633.0000     45.7000    114.0000     47.3000     30.0000
  8634.0000     46.3000     99.0000     46.9000     35.0000
  8635.0000     46.6000    125.0000     46.7000     41.0000
  8636.0000     44.9000    241.0000     46.7000     39.0000
  8637.0000     45.8000    469.0000     46.7000     27.0000
  8638.0000     47.2000    758.0000     46.7000     19.0000
  8639.0000     47.4000   1159.0000     46.3000     13.0000
  8640.0000     47.4000   1214.0000     45.7000     12.0000
  8641.0000     47.3000   1181.0000     45.3000     12.0000
  8642.0000     47.3000    839.0000     44.3000     12.0000
  8643.0000     47.0000    549.0000     43.5000     14.0000
  8644.0000     45.9000    393.0000     43.1000     16.0000
  8645.0000     44.8000    159.0000     42.7000     19.0000
  8646.0000     55.7000     90.0000     42.1000     41.0000
  8647.0000     57.8000     29.0000     41.1000     79.0000
  8648.0000     47.4000    105.0000     40.3000     49.0000
  8649.0000     44.7000    355.0000     39.3000     39.0000
  8650.0000     45.4000    408.0000     38.1000     37.0000
  8651.0000     45.2000    444.0000     36.9000     35.0000
  8652.0000     44.0000    478.0000     34.7000     41.0000
  8653.0000     44.3000    564.0000     32.7000     45.0000
  8654.0000     45.7000    580.0000     31.9000     44.0000
  8655.0000     45.9000    529.0000     31.5000     36.0000
  8656.0000     47.8000    330.0000     31.1000     31.0000
  8657.0000     53.5000    175.0000     30.7000     25.0000
  8658.0000     57.3000    136.0000     30.3000     24.0000
  8659.0000     58.0000    121.0000     28.9000     20.0000
  8660.0000     57.5000     59.0000     26.1000     17.0000
  8661.0000     60.1000     24.0000     24.6000     17.0000
  8662.0000     63.2000     18.2000     24.0000     16.0000
  8663.0000     64.6000     19.9000     23.4000      0.0000
  8664.0000     64.3000     27.0000     23.0000      0.0000
  8665.0000     62.2000     31.0000     22.6000      0.0000
  8666.0000     61.5000     24.0000     22.6000      0.0000
  8667.0000     63.3000     15.1000     22.6000      0.0000
  8668.0000     65.7000     13.0000     22.6000      0.0000
  8669.0000     68.6000     11.3000     22.6000      0.0000
  8670.0000     70.9000      9.3000     22.6000      0.0000
  8671.0000     71.7000      7.6000     22.6000      0.0000
  8672.0000     71.8000      7.5000     23.0000      0.0000
  8673.0000     72.8000      7.6000     23.2000      0.0000
  8674.0000     73.7000      7.4000     23.4000      0.0000
